{"type":"FeatureCollection","features":[
{"type":"Feature","id":"EFAA","properties":{"name":"Aavahelukka","type":"A1","publ":"23.6.2016","updated":"5.7.2018"},"geometry":{"type": "Point","coordinates": [23.969167,67.605278]}},
{"type":"Feature","id":"EFAH","properties":{"name":"Ahmosuo","type":"A1","publ":"23.6.2016","updated":"5.7.2018"},"geometry":{"type": "Point","coordinates": [25.754167,64.894167]}},
{"type":"Feature","id":"AINOLA","properties":{"name":"Ainolan kentta","type":"A1","publ":"23.6.2016","updated":"5.7.2018"},"geometry":{"type": "Point","coordinates": [25.099444,60.453889]}},
{"type":"Feature","id":"EFAL","properties":{"name":"Alavus","type":"A1","publ":"23.6.2016","updated":"5.7.2018"},"geometry":{"type": "Point","coordinates": [23.567222,62.555]}},
{"type":"Feature","id":"ELIMAEN","properties":{"name":"Elimaen lennokkikentta","type":"A1","publ":"23.6.2016","updated":"5.7.2018"},"geometry":{"type": "Point","coordinates": [26.536667,60.7775]}},
{"type":"Feature","id":"ESPOON","properties":{"name":"Espoon RC-ilmailukentta","type":"A1","publ":"23.6.2016","updated":"5.7.2018"},"geometry":{"type": "Point","coordinates": [24.533056,60.241944]}},
{"type":"Feature","id":"EFEU","properties":{"name":"Eura","type":"A1","publ":"23.6.2016","updated":"5.7.2018"},"geometry":{"type": "Point","coordinates": [22.2,61.116389]}},
{"type":"Feature","id":"FLYHIGH","properties":{"name":"FlyHigh Joutseno","type":"A1","publ":"23.6.2016","updated":"5.7.2018"},"geometry":{"type": "Point","coordinates": [28.526389,61.1125]}},
{"type":"Feature","id":"EFFO","properties":{"name":"Forssa","type":"A1","publ":"23.6.2016","updated":"5.7.2018"},"geometry":{"type": "Point","coordinates": [23.650556,60.803611]}},
{"type":"Feature","id":"EFHP","properties":{"name":"Haapavesi","type":"A1","publ":"23.6.2016","updated":"5.7.2018"},"geometry":{"type": "Point","coordinates": [25.504167,64.1125]}},
{"type":"Feature","id":"EFHL","properties":{"name":"Hailuoto","type":"A1","publ":"23.6.2016","updated":"5.7.2018"},"geometry":{"type": "Point","coordinates": [24.705,64.97]}},
{"type":"Feature","id":"EFHM","properties":{"name":"Hameenkyro","type":"A1","publ":"23.6.2016","updated":"5.7.2018"},"geometry":{"type": "Point","coordinates": [23.077222,61.69]}},
{"type":"Feature","id":"EFHN","properties":{"name":"Hanko","type":"A1","publ":"23.6.2016","updated":"5.7.2018"},"geometry":{"type": "Point","coordinates": [23.085556,59.848056]}},
{"type":"Feature","id":"IISAMIPORO","properties":{"name":"Iisalmi porovesi jaaalue","type":"A1","publ":"23.6.2016","updated":"5.7.2018"},"geometry":{"type": "Point","coordinates": [27.160833,63.543889]}},
{"type":"Feature","id":"EFII","properties":{"name":"Iisalmi","type":"A1","publ":"23.6.2016","updated":"5.7.2018"},"geometry":{"type": "Point","coordinates": [27.124167,63.631944]}},
{"type":"Feature","id":"EFIM","properties":{"name":"Immola","type":"A1","publ":"23.6.2016","updated":"5.7.2018"},"geometry":{"type": "Point","coordinates": [28.903611,61.249722]}},
{"type":"Feature","id":"EFJM","properties":{"name":"Jamijarvi","type":"A1","publ":"23.6.2016","updated":"5.7.2018"},"geometry":{"type": "Point","coordinates": [22.716111,61.778889]}},
{"type":"Feature","id":"JAUHOJARVI","properties":{"name":"Jauhojarvi-Saininlampi","type":"A1","publ":"23.6.2016","updated":"5.7.2018"},"geometry":{"type": "Point","coordinates": [27.078611,62.6075]}},
{"type":"Feature","id":"KAATIS","properties":{"name":"Kaatis","type":"A1","publ":"23.6.2016","updated":"5.7.2018"},"geometry":{"type": "Point","coordinates": [27.545556,62.837778]}},
{"type":"Feature","id":"EFKO","properties":{"name":"Kalajoki","type":"A1","publ":"23.6.2016","updated":"5.7.2018"},"geometry":{"type": "Point","coordinates": [23.826389,64.229722]}},
{"type":"Feature","id":"KARBY","properties":{"name":"Karby","type":"A1","publ":"23.6.2016","updated":"5.7.2018"},"geometry":{"type": "Point","coordinates": [22.604722,63.599444]}},
{"type":"Feature","id":"EFKR","properties":{"name":"Karsamaki","type":"A1","publ":"23.6.2016","updated":"5.7.2018"},"geometry":{"type": "Point","coordinates": [25.743611,63.989444]}},
{"type":"Feature","id":"EFKJ","properties":{"name":"Kauhajoki","type":"A1","publ":"23.6.2016","updated":"5.7.2018"},"geometry":{"type": "Point","coordinates": [22.394722,62.464167]}},
{"type":"Feature","id":"EFKA","properties":{"name":"Kauhava","type":"A1","publ":"23.6.2016","updated":"5.7.2018"},"geometry":{"type": "Point","coordinates": [23.056389,63.119722]}},
{"type":"Feature","id":"EFKM","properties":{"name":"Kemijarvi","type":"A1","publ":"23.6.2016","updated":"5.7.2018"},"geometry":{"type": "Point","coordinates": [27.155833,66.715556]}},
{"type":"Feature","id":"EFIK","properties":{"name":"Kiikala","type":"A1","publ":"23.6.2016","updated":"5.7.2018"},"geometry":{"type": "Point","coordinates": [23.651111,60.463333]}},
{"type":"Feature","id":"EFIT","properties":{"name":"Kitee","type":"A1","publ":"23.6.2016","updated":"5.7.2018"},"geometry":{"type": "Point","coordinates": [30.074722,62.166944]}},
{"type":"Feature","id":"KIURUJ","properties":{"name":"Kirujarvi","type":"A1","publ":"23.6.2016","updated":"5.7.2018"},"geometry":{"type": "Point","coordinates": [26.701667,63.634722]}},
{"type":"Feature","id":"EFRV","properties":{"name":"Kiuruvesi","type":"A1","publ":"23.6.2016","updated":"5.7.2018"},"geometry":{"type": "Point","coordinates": [26.617222,63.703611]}},
{"type":"Feature","id":"KUIVANTO","properties":{"name":"Kuivanto","type":"A1","publ":"23.6.2016","updated":"5.7.2018"},"geometry":{"type": "Point","coordinates": [26.119167,60.872222]}},
{"type":"Feature","id":"KUNINKAANPORTTI","properties":{"name":"Kuninkaanportti","type":"A1","publ":"23.6.2016","updated":"5.7.2018"},"geometry":{"type": "Point","coordinates": [25.608333,60.394722]}},
{"type":"Feature","id":"KURJENNEVA","properties":{"name":"Kurjenneva","type":"A1","publ":"23.6.2016","updated":"5.7.2018"},"geometry":{"type": "Point","coordinates": [23.130833,62.763333]}},
{"type":"Feature","id":"EFKY","properties":{"name":"Kymi","type":"A1","publ":"23.6.2016","updated":"5.7.2018"},"geometry":{"type": "Point","coordinates": [26.893889,60.575]}},
{"type":"Feature","id":"KYMIJARVI","properties":{"name":"Kymijarvi","type":"A1","publ":"23.6.2016","updated":"5.7.2018"},"geometry":{"type": "Point","coordinates": [25.746667,60.985556]}},
{"type":"Feature","id":"EFLL","properties":{"name":"Lapinlahti","type":"A1","publ":"23.6.2016","updated":"5.7.2018"},"geometry":{"type": "Point","coordinates": [27.479167,63.399722]}},
{"type":"Feature","id":"LEPPALAHTI","properties":{"name":"Leppalahti","type":"A1","publ":"23.6.2016","updated":"5.7.2018"},"geometry":{"type": "Point","coordinates": [25.946111,62.233056]}},
{"type":"Feature","id":"EFLN","properties":{"name":"Lieksa-Nurmes","type":"A1","publ":"23.6.2016","updated":"5.7.2018"},"geometry":{"type": "Point","coordinates": [29.625278,63.5125]}},
{"type":"Feature","id":"LIPEALAMPI","properties":{"name":"Lipealampi","type":"A1","publ":"23.6.2016","updated":"5.7.2018"},"geometry":{"type": "Point","coordinates": [26.113889,62.253889]}},
{"type":"Feature","id":"LOUKEINEN","properties":{"name":"Loukeinen","type":"A1","publ":"23.6.2016","updated":"5.7.2018"},"geometry":{"type": "Point","coordinates": [27.374167,61.866111]}},
{"type":"Feature","id":"LOVIIS","properties":{"name":"Loviisan ilmailijoiden lennokkikentta","type":"A1","publ":"23.6.2016","updated":"5.7.2018"},"geometry":{"type": "Point","coordinates": [26.496667,60.526667]}},
{"type":"Feature","id":"LUISTARI","properties":{"name":"Luistari","type":"A1","publ":"23.6.2016","updated":"5.7.2018"},"geometry":{"type": "Point","coordinates": [22.137778,61.119444]}},
{"type":"Feature","id":"EFME","properties":{"name":"Menkijarvi","type":"A1","publ":"23.6.2016","updated":"5.7.2018"},"geometry":{"type": "Point","coordinates": [23.518611,62.947222]}},
{"type":"Feature","id":"EFNU","properties":{"name":"Nummela","type":"A1","publ":"23.6.2016","updated":"5.7.2018"},"geometry":{"type": "Point","coordinates": [24.296389,60.333889]}},
{"type":"Feature","id":"NUNNAN","properties":{"name":"Nunnanlahden jaa/vesilennatysalue","type":"A1","publ":"23.6.2016","updated":"5.7.2018"},"geometry":{"type": "Point","coordinates": [29.259722,61.827222]}},
{"type":"Feature","id":"EFOP","properties":{"name":"Oripaa","type":"A1","publ":"23.6.2016","updated":"5.7.2018"},"geometry":{"type": "Point","coordinates": [22.745,60.876389]}},
{"type":"Feature","id":"EFPK","properties":{"name":"Pieksamaki","type":"A1","publ":"23.6.2016","updated":"5.7.2018"},"geometry":{"type": "Point","coordinates": [27.002778,62.264722]}},
{"type":"Feature","id":"EFPI","properties":{"name":"Piikajarvi","type":"A1","publ":"23.6.2016","updated":"5.7.2018"},"geometry":{"type": "Point","coordinates": [22.187222,61.248333]}},
{"type":"Feature","id":"PINSIO","properties":{"name":"Pinsion lennokkikentta","type":"A1"},"geometry":{"type": "Point","coordinates": [23.46,61.576667]}},
{"type":"Feature","id":"EFPN","properties":{"name":"Punkaharju","type":"A1","publ":"23.6.2016","updated":"5.7.2018"},"geometry":{"type": "Point","coordinates": [29.393889,61.727222]}},
{"type":"Feature","id":"EFPY","properties":{"name":"Pyhasalmi","type":"A1","publ":"23.6.2016","updated":"5.7.2018"},"geometry":{"type": "Point","coordinates": [25.931667,63.73]}},
{"type":"Feature","id":"EFRH","properties":{"name":"Raahe-Pattijoki","type":"A1","publ":"23.6.2016","updated":"5.7.2018"},"geometry":{"type": "Point","coordinates": [24.694722,64.688333]}},
{"type":"Feature","id":"EFRN","properties":{"name":"Rantasalmi","type":"A1","publ":"23.6.2016","updated":"5.7.2018"},"geometry":{"type": "Point","coordinates": [28.356111,62.065278]}},
{"type":"Feature","id":"EFRA","properties":{"name":"Rautavaara","type":"A1","publ":"23.6.2016","updated":"5.7.2018"},"geometry":{"type": "Point","coordinates": [28.125,63.426111]}},
{"type":"Feature","id":"EFRY","properties":{"name":"Rayskala","type":"A1","publ":"23.6.2016","updated":"5.7.2018"},"geometry":{"type": "Point","coordinates": [24.107778,60.744722]}},
{"type":"Feature","id":"SASSI","properties":{"name":"Sassi","type":"A1","publ":"23.6.2016","updated":"5.7.2018"},"geometry":{"type": "Point","coordinates": [24.660833,62.027778]}},
{"type":"Feature","id":"SALVARI","properties":{"name":"Savarin kentta Ylivieska","type":"A1","publ":"23.6.2016","updated":"5.7.2018"},"geometry":{"type": "Point","coordinates": [24.574167,64.059167]}},
{"type":"Feature","id":"EFNS","properties":{"name":"Savikko","type":"A1","publ":"23.6.2016","updated":"5.7.2018"},"geometry":{"type": "Point","coordinates": [24.831944,60.519722]}},
{"type":"Feature","id":"EFSE","properties":{"name":"Selanpaa","type":"A1","publ":"23.6.2016","updated":"5.7.2018"},"geometry":{"type": "Point","coordinates": [26.795833,61.064167]}},
{"type":"Feature","id":"SUKEVA","properties":{"name":"Sukevajarvi kuusijarven laavu","type":"A1","publ":"23.6.2016","updated":"5.7.2018"},"geometry":{"type": "Point","coordinates": [27.385833,63.886111]}},
{"type":"Feature","id":"SUONNE","properties":{"name":"Suonteen selka","type":"A1","publ":"23.6.2016","updated":"5.7.2018"},"geometry":{"type": "Point","coordinates": [27.157222,62.595556]}},
{"type":"Feature","id":"SUURSUO","properties":{"name":"Suursuo","type":"A1","publ":"23.6.2016","updated":"5.7.2018"},"geometry":{"type": "Point","coordinates": [27.038333,62.625833]}},
{"type":"Feature","id":"TALOSAARI","properties":{"name":"Talosaarentien kentta","type":"A1","publ":"23.6.2016","updated":"5.7.2018"},"geometry":{"type": "Point","coordinates": [25.178333,60.243611]}},
{"type":"Feature","id":"TIHVETTI","properties":{"name":"Tihvetinjarvi","type":"A1","publ":"23.6.2016","updated":"5.7.2018"},"geometry":{"type": "Point","coordinates": [26.835833,61.135556]}},
{"type":"Feature","id":"EFTO","properties":{"name":"Torbacka","type":"A1","publ":"23.6.2016","updated":"5.7.2018"},"geometry":{"type": "Point","coordinates": [24.171944,60.079167]}},
{"type":"Feature","id":"EFWB","properties":{"name":"Wredeby","type":"A1","publ":"23.6.2016","updated":"5.7.2018"},"geometry":{"type": "Point","coordinates": [26.745833,60.663889]}},
{"type":"Feature","id":"VUORENTAKA","properties":{"name":"Vuorentaka","type":"A1","publ":"23.6.2016","updated":"5.7.2018"},"geometry":{"type": "Point","coordinates": [24.365,60.999722]}},
{"type":"Feature","id":"EFYL","properties":{"name":"Ylivieska","type":"A1","publ":"23.6.2016","updated":"5.7.2018"},"geometry":{"type": "Point","coordinates": [24.720833,64.054167]}},
{"type":"Feature","id":"EFHA","properties":{"name":"Halli","type":"A2","publ":"23.6.2016","updated":"5.7.2018"},"geometry":{"type": "Point","coordinates": [24.793889,61.856667]}},
{"type":"Feature","id":"HIEKKALAHTI","properties":{"name":"Hiekkalahden soramonttu","type":"A2","publ":"23.6.2016","updated":"5.7.2018"},"geometry":{"type": "Point","coordinates": [29.243333,61.845278]}},
{"type":"Feature","id":"EFJY","properties":{"name":"Jyvaskyla","type":"A2","publ":"23.6.2016","updated":"5.7.2018"},"geometry":{"type": "Point","coordinates": [25.661944,62.401944]}},
{"type":"Feature","id":"JAMSA","properties":{"name":"Jamsan lennokkikentta","type":"A2","publ":"23.6.2016","updated":"5.7.2018"},"geometry":{"type": "Point","coordinates": [25.093333,61.871389]}},
{"type":"Feature","id":"KALMARI","properties":{"name":"Kalmarin pelto","type":"A2","publ":"23.6.2016","updated":"5.7.2018"},"geometry":{"type": "Point","coordinates": [25.865,62.326389]}},
{"type":"Feature","id":"KEINUKALLIO","properties":{"name":"Keinukallion lennokkikentta","type":"A2","publ":"23.6.2016","updated":"5.7.2018"},"geometry":{"type": "Point","coordinates": [25.1425,60.381111]}},
{"type":"Feature","id":"KELJONRANTA","properties":{"name":"Keljonranta","type":"A2","publ":"23.6.2016","updated":"5.7.2018"},"geometry":{"type": "Point","coordinates": [25.735278,62.202222]}},
{"type":"Feature","id":"KIRMASEN","properties":{"name":"Kirmasen kentta","type":"A2","publ":"23.6.2016","updated":"5.7.2018"},"geometry":{"type": "Point","coordinates": [29.242222,61.870556]}},
{"type":"Feature","id":"LALVON","properties":{"name":"Lalvon jaakentta","type":"A2","publ":"23.6.2016","updated":"5.7.2018"},"geometry":{"type": "Point","coordinates": [27.613056,62.929167]}},
{"type":"Feature","id":"LAPPALANJARVI","properties":{"name":"Lappalanjarvi","type":"A2","publ":"23.6.2016","updated":"5.7.2018"},"geometry":{"type": "Point","coordinates": [26.774167,60.936944]}},
{"type":"Feature","id":"LAPPEENRANTA","properties":{"name":"Lappeenranta","type":"A2","publ":"23.6.2016","updated":"5.7.2018"},"geometry":{"type": "Point","coordinates": [28.142222,61.043056]}},
{"type":"Feature","id":"LEHTONIEMI","properties":{"name":"Lehtoniemi","type":"A2","publ":"23.6.2016","updated":"5.7.2018"},"geometry":{"type": "Point","coordinates": [27.737222,62.866111]}},
{"type":"Feature","id":"PAATTINEN","properties":{"name":"Paattinen","type":"A2","publ":"23.6.2016","updated":"5.7.2018"},"geometry":{"type": "Point","coordinates": [22.34,60.595556]}},
{"type":"Feature","id":"PETIKKO","properties":{"name":"Petikko","type":"A2","publ":"23.6.2016","updated":"5.7.2018"},"geometry":{"type": "Point","coordinates": [24.817778,60.289167]}},
{"type":"Feature","id":"SUONSAARI","properties":{"name":"Suonsaaren lennokkikentta","type":"A2","publ":"23.6.2016","updated":"5.7.2018"},"geometry":{"type": "Point","coordinates": [27.310556,61.738333]}},
{"type":"Feature","id":"TYKKIMAENTIE","properties":{"name":"Tykkimaentie","type":"A2","publ":"23.6.2016","updated":"5.7.2018"},"geometry":{"type": "Point","coordinates": [26.803611,60.876944]}},
{"type":"Feature","id":"KW","properties":{"name":"Ummeljoki","type":"A2","publ":"23.6.2016","updated":"5.7.2018"},"geometry":{"type": "Point","coordinates": [26.735,60.757222]}}
]}
